[{"id":"2","title":"driver needed","description":"driver for wedding","price":"60","pay_type":"perhours","start_date":"2021-09-10","end_date":"2021-09-10","latitude":49.2836,"longitude":-123.1268,"category_id":1,"client_id":2,"helper_id":1},{"id":4,"title":"DJ for our wedding","description":"need a great DJ","price":"55","pay_type":"/hr","start_date":"2021-09-10","end_date":"2021-09-10","latitude":49.2778,"longitude":-123.1263,"category_id":4,"client_id":1,"helper_id":2},{"id":5,"title":"wedding dress","description":"I need special wedding dress","price":"1000","pay_type":" total","start_date":"2021-09-10","end_date":"2021-09-10","latitude":49.2765,"longitude":-123.1363,"category_id":2,"client_id":2,"helper_id":1},{"id":6,"title":"DJ for BD party","description":"My son BD party with 20 kids!","price":"150","pay_type":"/hr","start_date":"2021-09-10","end_date":"2021-09-10","latitude":49.2922,"longitude":-123.1424,"category_id":4,"client_id":2,"helper_id":1},{"id":7,"title":"DJ for BD party","description":"My son BD party with 20 kids!","price":"150","pay_type":"/hr","start_date":"2021-09-10","end_date":"2021-09-10","latitude":49.2931,"longitude":-123.1354,"category_id":4,"client_id":2,"helper_id":1},{"id":8,"title":"some photos","description":"My wife BD party with 20 guests","price":"120","pay_type":" total","start_date":"2021-09-10","end_date":"2021-09-10","latitude":49.2745967,"longitude":-123.11374,"category_id":3,"client_id":1,"helper_id":2},{"id":9,"title":"flower for design","description":"need some white rose for my wedding party","price":"1120","pay_type":" total","start_date":"2021-09-23","end_date":"2021-09-23","latitude":49.339,"longitude":-123.1709,"category_id":6,"client_id":1,"helper_id":2},{"id":10,"title":"makeup","description":"perfect makeup","price":"1120","pay_type":" total","start_date":"2021-09-23","end_date":"2021-09-23","latitude":49.339,"longitude":-123.1799,"category_id":5,"client_id":3,"helper_id":4},{"id":11,"title":"flower for my party","description":"need some white rose for my party","price":"1120","pay_type":" total","start_date":"2021-09-23","end_date":"2021-09-23","latitude":49.2883,"longitude":-123.1343,"category_id":6,"client_id":4,"helper_id":3},{"id":12,"title":"flower for my party","description":"need some white rose for my party","price":"1120","pay_type":" total","start_date":"2021-09-23","end_date":"2021-09-23","latitude":49.2817,"longitude":-123.0925,"category_id":6,"client_id":4,"helper_id":3}]