[
    {
        "id": "2",
        "title": "driver needed",
        "description": "driver for wedding guest",
        "price": "60",
        "pay_type": "perhours",
        "start_date": "2021-09-10",
        "end_date": "2021-09-10",
        "latitude": 49.2836,
        "longitude": -123.1268,
        "category_id": 1,
        "client_id": 2,
        "helper_id": 1
    },
    {
        "id": "4",
        "title": "DJ for our wedding",
        "description": "need a great DJ",
        "price": "55",
        "pay_type": "perhours",
        "start_date": "2021-09-10",
        "end_date": "2021-09-10",
        "latitude": 49.2778,
        "longitude": -123.1263,
        "category_id": 4,
        "client_id": 2,
        "helper_id": 1
    },
    {
        "id": "5",
        "title": "wedding dress",
        "description": "I need special wedding dress",
        "price": "1000",
        "pay_type": "total",
        "start_date": "2021-09-10",
        "end_date": "2021-09-10",
        "latitude": 49.2765,
        "longitude": -123.1363,
        "category_id": 2,
        "client_id": 2,
        "helper_id": 4
    },
    {
        "id": "6",
        "title": "DJ for BD party",
        "description": "My son BD party with 20 kids!",
        "price": "150",
        "pay_type": "perhours",
        "start_date": "2021-09-10",
        "end_date": "2021-09-10",
        "latitude": 49.2922,
        "longitude": -123.1424,
        "category_id": 4,
        "client_id": 2,
        "helper_id": 3
    },
    {
        "id": "7",
        "title": "DJ for dinner party",
        "description": "dinner party with 85 guest",
        "price": "150",
        "pay_type": "perhours",
        "start_date": "2021-09-10",
        "end_date": "2021-09-10",
        "latitude": 49.2931,
        "longitude": -123.1354,
        "category_id": 4,
        "client_id": 2,
        "helper_id": 1
    },
    {
        "id": "8",
        "title": "some photos",
        "description": "My wife BD party with 40 guests",
        "price": "120",
        "pay_type": "total",
        "start_date": "2021-09-10",
        "end_date": "2021-09-10",
        "latitude": 49.2745967,
        "longitude": -123.11374,
        "category_id": 3,
        "client_id": 2,
        "helper_id": 1
    },
    {
        "id": "9",
        "title": "flower for design",
        "description": "need some white rose for my wedding party",
        "price": "120",
        "pay_type": "total",
        "start_date": "2021-09-23",
        "end_date": "2021-09-23",
        "latitude": 49.339,
        "longitude": -123.1709,
        "category_id": 6,
        "client_id": 1,
        "helper_id": 4
    },
    {
        "id": "10",
        "title": "makeup",
        "description": "perfect makeup",
        "price": "1100",
        "pay_type": "total",
        "start_date": "2021-09-23",
        "end_date": "2021-09-23",
        "latitude": 49.339,
        "longitude": -123.1799,
        "category_id": 5,
        "client_id": 3,
        "helper_id": 4
    },
    {
        "id": "11",
        "title": "flowers for my party",
        "description": "need some white rose for my party",
        "price": "200",
        "pay_type": "total",
        "start_date": "2021-09-23",
        "end_date": "2021-09-23",
        "latitude": 49.2883,
        "longitude": -123.1343,
        "category_id": 6,
        "client_id": 4,
        "helper_id": 3
    },
    {
        "id": "12",
        "title": "flowers for first ceremony",
        "description": "need pink flowers",
        "price": "300",
        "pay_type": "total",
        "start_date": "2021-09-23",
        "end_date": "2021-09-23",
        "latitude": 49.2817,
        "longitude": -123.0925,
        "category_id": 6,
        "client_id": 4,
        "helper_id": 3
    },
    {
        "id": "15",
        "title": "Event photo",
        "description": "we need a photographer for one day",
        "price": "550",
        "pay_type": "total",
        "start_date": "2021-04-12T04:28:34.067Z",
        "end_date": "2021-04-12T04:28:34.067Z",
        "latitude": 49.3314,
        "longitude": -123.1227,
        "category_id": 3,
        "client_id": 2,
        "helper_id": 4
    },
    {
        "id": "16",
        "title": "staff dress",
        "description": "10 dress with different size",
        "price": "1200",
        "pay_type": "total",
        "start_date": "2021-04-12T04:29:50.802Z",
        "end_date": "2021-04-12T04:29:50.802Z",
        "latitude": 49.32675709999999,
        "longitude": -123.1447627,
        "category_id": 2,
        "client_id": 3,
        "helper_id": 4
    },
    {
        "id": "17",
        "title": "25 small flower box",
        "description": "I need 25 flower box for Christmas gift",
        "price": "2500",
        "pay_type": "total",
        "start_date": "2021-04-12T04:33:30.477Z",
        "end_date": "2021-04-12T04:33:30.477Z",
        "latitude": 49.3239,
        "longitude": -123.1212,
        "category_id": 6,
        "client_id": 2,
        "helper_id": 4
    },
    {
        "id": "18",
        "title": "DJ for our wedding",
        "description": "200 guest and 6 hours ",
        "price": "100",
        "pay_type": "/hr",
        "start_date": "2021-04-12T04:38:02.544Z",
        "end_date": "2021-04-12T04:38:02.544Z",
        "latitude": 49.3370707,
        "longitude": -123.1528452,
        "category_id": 4,
        "client_id": 2,
        "helper_id": 4
    },
    {
        "id": "19",
        "title": "Driver without car",
        "description": "I need a driver for my car out of the city",
        "price": "60",
        "pay_type": "/hr",
        "start_date": "2021-04-12T04:53:59.434Z",
        "end_date": "2021-04-12T04:53:59.434Z",
        "latitude": 49.318167,
        "longitude": -123.12413,
        "category_id": 1,
        "client_id": 3,
        "helper_id": 4
    },
    {
        "id": "21",
        "title": "Big box of roses",
        "description": "I need a box of red roses and also delivery",
        "price": "1000",
        "pay_type": "total",
        "start_date": "2021-04-12T04:59:04.089Z",
        "end_date": "2021-04-12T04:59:04.089Z",
        "latitude": 49.34158739999999,
        "longitude": -123.15071,
        "category_id": 6,
        "client_id": 4,
        "helper_id": 1
    },
    {
        "id": "22",
        "title": "wedding dress",
        "description": "I need my dress urgently",
        "price": "500",
        "pay_type": "total",
        "start_date": "2021-04-12T05:01:53.397Z",
        "end_date": "2021-04-12T05:01:53.397Z",
        "latitude": 49.33847189999999,
        "longitude": -123.1038035,
        "category_id": 2,
        "client_id": 2,
        "helper_id": 4
    },
    {
        "id": "18",
        "title": "sss",
        "description": "sss",
        "price": "100",
        "pay_type": "/hr",
        "start_date": "2021-04-15T03:28:00.000Z",
        "end_date": "2021-04-16T03:28:00.000Z",
        "latitude": 49.3295095,
        "longitude": -123.1678578,
        "category_id": 3,
        "client_id": 1,
        "helper_id": 4
    },
    {
        "id": "19",
        "title": "ffff",
        "description": "ffff",
        "price": "100",
        "pay_type": "/hr",
        "start_date": "2021-04-16T18:44:35.976Z",
        "end_date": "2021-04-16T18:44:35.976Z",
        "latitude": 49.32846439999999,
        "longitude": -123.1535332,
        "category_id": 5,
        "client_id": 1,
        "helper_id": 4
    }
]